<?xml version="1.0" encoding="UTF-8" standalone="no"?>
<geonames style="SHORT">
<totalResultsCount>51</totalResultsCount>
<geoname>
<toponymName>Alabama</toponymName>
<name>Alabama</name>
<lat>32.7504062</lat>
<lng>-86.7502625</lng>
<geonameId>4829764</geonameId>
<countryCode>US</countryCode>
<fcl>A</fcl>
<fcode>ADM1</fcode>
<numberOfChildren>67</numberOfChildren>
</geoname>
<geoname>
<toponymName>Alaska</toponymName>
<name>Alaska</name>
<lat>64.0002778</lat>
<lng>-150.0002778</lng>
<geonameId>5879092</geonameId>
<countryCode>US</countryCode>
<fcl>A</fcl>
<fcode>ADM1</fcode>
<numberOfChildren>31</numberOfChildren>
</geoname>
<geoname>
<toponymName>Arizona</toponymName>
<name>Arizona</name>
<lat>34.5003037</lat>
<lng>-111.5009764</lng>
<geonameId>5551752</geonameId>
<countryCode>US</countryCode>
<fcl>A</fcl>
<fcode>ADM1</fcode>
<numberOfChildren>15</numberOfChildren>
</geoname>
<geoname>
<toponymName>Arkansas</toponymName>
<name>Arkansas</name>
<lat>34.7503697</lat>
<lng>-92.5004364</lng>
<geonameId>4099753</geonameId>
<countryCode>US</countryCode>
<fcl>A</fcl>
<fcode>ADM1</fcode>
<numberOfChildren>75</numberOfChildren>
</geoname>
<geoname>
<toponymName>California</toponymName>
<name>California</name>
<lat>37.2502247</lat>
<lng>-119.7512643</lng>
<geonameId>5332921</geonameId>
<countryCode>US</countryCode>
<fcl>A</fcl>
<fcode>ADM1</fcode>
<numberOfChildren>58</numberOfChildren>
</geoname>
<geoname>
<toponymName>Colorado</toponymName>
<name>Colorado</name>
<lat>39.0002698</lat>
<lng>-105.5008327</lng>
<geonameId>5417618</geonameId>
<countryCode>US</countryCode>
<fcl>A</fcl>
<fcode>ADM1</fcode>
<numberOfChildren>64</numberOfChildren>
</geoname>
<geoname>
<toponymName>Connecticut</toponymName>
<name>Connecticut</name>
<lat>41.6670439</lat>
<lng>-72.6664819</lng>
<geonameId>4831725</geonameId>
<countryCode>US</countryCode>
<fcl>A</fcl>
<fcode>ADM1</fcode>
<numberOfChildren>8</numberOfChildren>
</geoname>
<geoname>
<toponymName>Delaware</toponymName>
<name>Delaware</name>
<lat>39.0003906</lat>
<lng>-75.4999224</lng>
<geonameId>4142224</geonameId>
<countryCode>US</countryCode>
<fcl>A</fcl>
<fcode>ADM1</fcode>
<numberOfChildren>3</numberOfChildren>
</geoname>
<geoname>
<toponymName>Florida</toponymName>
<name>Florida</name>
<lat>28.7505408</lat>
<lng>-82.5000976</lng>
<geonameId>4155751</geonameId>
<countryCode>US</countryCode>
<fcl>A</fcl>
<fcode>ADM1</fcode>
<numberOfChildren>67</numberOfChildren>
</geoname>
<geoname>
<toponymName>Georgia</toponymName>
<name>Georgia</name>
<lat>32.7504171</lat>
<lng>-83.5001803</lng>
<geonameId>4197000</geonameId>
<countryCode>US</countryCode>
<fcl>A</fcl>
<fcode>ADM1</fcode>
<numberOfChildren>159</numberOfChildren>
</geoname>
<geoname>
<toponymName>Hawaii</toponymName>
<name>Hawaii</name>
<lat>20.7502778</lat>
<lng>-156.5002778</lng>
<geonameId>5855797</geonameId>
<countryCode>US</countryCode>
<fcl>A</fcl>
<fcode>ADM1</fcode>
<numberOfChildren>5</numberOfChildren>
</geoname>
<geoname>
<toponymName>Idaho</toponymName>
<name>Idaho</name>
<lat>44.5001999</lat>
<lng>-114.2511761</lng>
<geonameId>5596512</geonameId>
<countryCode>US</countryCode>
<fcl>A</fcl>
<fcode>ADM1</fcode>
<numberOfChildren>44</numberOfChildren>
</geoname>
<geoname>
<toponymName>Illinois</toponymName>
<name>Illinois</name>
<lat>40.0003204</lat>
<lng>-89.2503681</lng>
<geonameId>4896861</geonameId>
<countryCode>US</countryCode>
<fcl>A</fcl>
<fcode>ADM1</fcode>
<numberOfChildren>102</numberOfChildren>
</geoname>
<geoname>
<toponymName>Indiana</toponymName>
<name>Indiana</name>
<lat>40.0003166</lat>
<lng>-86.2502707</lng>
<geonameId>4921868</geonameId>
<countryCode>US</countryCode>
<fcl>A</fcl>
<fcode>ADM1</fcode>
<numberOfChildren>92</numberOfChildren>
</geoname>
<geoname>
<toponymName>Iowa</toponymName>
<name>Iowa</name>
<lat>42.0002654</lat>
<lng>-93.5004916</lng>
<geonameId>4862182</geonameId>
<countryCode>US</countryCode>
<fcl>A</fcl>
<fcode>ADM1</fcode>
<numberOfChildren>99</numberOfChildren>
</geoname>
<geoname>
<toponymName>Kansas</toponymName>
<name>Kansas</name>
<lat>38.5002888</lat>
<lng>-98.5006275</lng>
<geonameId>4273857</geonameId>
<countryCode>US</countryCode>
<fcl>A</fcl>
<fcode>ADM1</fcode>
<numberOfChildren>105</numberOfChildren>
</geoname>
<geoname>
<toponymName>Kentucky</toponymName>
<name>Kentucky</name>
<lat>38.2004177780005</lat>
<lng>-84.8776245117188</lng>
<geonameId>6254925</geonameId>
<countryCode>US</countryCode>
<fcl>A</fcl>
<fcode>ADM1</fcode>
<numberOfChildren>120</numberOfChildren>
</geoname>
<geoname>
<toponymName>Louisiana</toponymName>
<name>Louisiana</name>
<lat>31.000467</lat>
<lng>-92.0003987</lng>
<geonameId>4331987</geonameId>
<countryCode>US</countryCode>
<fcl>A</fcl>
<fcode>ADM1</fcode>
<numberOfChildren>64</numberOfChildren>
</geoname>
<geoname>
<toponymName>Maine</toponymName>
<name>Maine</name>
<lat>45.5003249</lat>
<lng>-69.2497714</lng>
<geonameId>4971068</geonameId>
<countryCode>US</countryCode>
<fcl>A</fcl>
<fcode>ADM1</fcode>
<numberOfChildren>16</numberOfChildren>
</geoname>
<geoname>
<toponymName>Maryland</toponymName>
<name>Maryland</name>
<lat>39.000388</lat>
<lng>-76.749969</lng>
<geonameId>4361885</geonameId>
<countryCode>US</countryCode>
<fcl>A</fcl>
<fcode>ADM1</fcode>
<numberOfChildren>24</numberOfChildren>
</geoname>
<geoname>
<toponymName>Massachusetts</toponymName>
<name>Massachusetts</name>
<lat>42.3656470028119</lat>
<lng>-71.1083221435547</lng>
<geonameId>6254926</geonameId>
<countryCode>US</countryCode>
<fcl>A</fcl>
<fcode>ADM1</fcode>
<numberOfChildren>14</numberOfChildren>
</geoname>
<geoname>
<toponymName>Michigan</toponymName>
<name>Michigan</name>
<lat>44.2502852</lat>
<lng>-85.500333</lng>
<geonameId>5001836</geonameId>
<countryCode>US</countryCode>
<fcl>A</fcl>
<fcode>ADM1</fcode>
<numberOfChildren>83</numberOfChildren>
</geoname>
<geoname>
<toponymName>Minnesota</toponymName>
<name>Minnesota</name>
<lat>46.2502448</lat>
<lng>-94.2505535</lng>
<geonameId>5037779</geonameId>
<countryCode>US</countryCode>
<fcl>A</fcl>
<fcode>ADM1</fcode>
<numberOfChildren>87</numberOfChildren>
</geoname>
<geoname>
<toponymName>Mississippi</toponymName>
<name>Mississippi</name>
<lat>32.7504114</lat>
<lng>-89.750357</lng>
<geonameId>4436296</geonameId>
<countryCode>US</countryCode>
<fcl>A</fcl>
<fcode>ADM1</fcode>
<numberOfChildren>82</numberOfChildren>
</geoname>
<geoname>
<toponymName>Missouri</toponymName>
<name>Missouri</name>
<lat>38.2503112</lat>
<lng>-92.5004614</lng>
<geonameId>4398678</geonameId>
<countryCode>US</countryCode>
<fcl>A</fcl>
<fcode>ADM1</fcode>
<numberOfChildren>115</numberOfChildren>
</geoname>
<geoname>
<toponymName>Montana</toponymName>
<name>Montana</name>
<lat>47.0002454</lat>
<lng>-109.7510212</lng>
<geonameId>5667009</geonameId>
<countryCode>US</countryCode>
<fcl>A</fcl>
<fcode>ADM1</fcode>
<numberOfChildren>56</numberOfChildren>
</geoname>
<geoname>
<toponymName>Nebraska</toponymName>
<name>Nebraska</name>
<lat>41.5002828</lat>
<lng>-99.7506736</lng>
<geonameId>5073708</geonameId>
<countryCode>US</countryCode>
<fcl>A</fcl>
<fcode>ADM1</fcode>
<numberOfChildren>93</numberOfChildren>
</geoname>
<geoname>
<toponymName>Nevada</toponymName>
<name>Nevada</name>
<lat>39.2502081</lat>
<lng>-116.7511911</lng>
<geonameId>5509151</geonameId>
<countryCode>US</countryCode>
<fcl>A</fcl>
<fcode>ADM1</fcode>
<numberOfChildren>17</numberOfChildren>
</geoname>
<geoname>
<toponymName>New Hampshire</toponymName>
<name>New Hampshire</name>
<lat>43.667019</lat>
<lng>-71.4997965</lng>
<geonameId>5090174</geonameId>
<countryCode>US</countryCode>
<fcl>A</fcl>
<fcode>ADM1</fcode>
<numberOfChildren>10</numberOfChildren>
</geoname>
<geoname>
<toponymName>New Jersey</toponymName>
<name>New Jersey</name>
<lat>40.1670562</lat>
<lng>-74.4998748</lng>
<geonameId>5101760</geonameId>
<countryCode>US</countryCode>
<fcl>A</fcl>
<fcode>ADM1</fcode>
<numberOfChildren>21</numberOfChildren>
</geoname>
<geoname>
<toponymName>New Mexico</toponymName>
<name>New Mexico</name>
<lat>34.5003439</lat>
<lng>-106.0008454</lng>
<geonameId>5481136</geonameId>
<countryCode>US</countryCode>
<fcl>A</fcl>
<fcode>ADM1</fcode>
<numberOfChildren>33</numberOfChildren>
</geoname>
<geoname>
<toponymName>New York</toponymName>
<name>New York</name>
<lat>43.0003472</lat>
<lng>-75.4998978</lng>
<geonameId>5128638</geonameId>
<countryCode>US</countryCode>
<fcl>A</fcl>
<fcode>ADM1</fcode>
<numberOfChildren>63</numberOfChildren>
</geoname>
<geoname>
<toponymName>North Carolina</toponymName>
<name>North Carolina</name>
<lat>35.5006942</lat>
<lng>-80.0003243</lng>
<geonameId>4482348</geonameId>
<countryCode>US</countryCode>
<fcl>A</fcl>
<fcode>ADM1</fcode>
<numberOfChildren>100</numberOfChildren>
</geoname>
<geoname>
<toponymName>North Dakota</toponymName>
<name>North Dakota</name>
<lat>47.500274</lat>
<lng>-100.0006798</lng>
<geonameId>5690763</geonameId>
<countryCode>US</countryCode>
<fcl>A</fcl>
<fcode>ADM1</fcode>
<numberOfChildren>53</numberOfChildren>
</geoname>
<geoname>
<toponymName>Ohio</toponymName>
<name>Ohio</name>
<lat>40.2503398</lat>
<lng>-83.0001841</lng>
<geonameId>5165418</geonameId>
<countryCode>US</countryCode>
<fcl>A</fcl>
<fcode>ADM1</fcode>
<numberOfChildren>88</numberOfChildren>
</geoname>
<geoname>
<toponymName>Oklahoma</toponymName>
<name>Oklahoma</name>
<lat>35.5003375</lat>
<lng>-97.5005945</lng>
<geonameId>4544379</geonameId>
<countryCode>US</countryCode>
<fcl>A</fcl>
<fcode>ADM1</fcode>
<numberOfChildren>77</numberOfChildren>
</geoname>
<geoname>
<toponymName>Oregon</toponymName>
<name>Oregon</name>
<lat>44.0001313</lat>
<lng>-120.5013876</lng>
<geonameId>5744337</geonameId>
<countryCode>US</countryCode>
<fcl>A</fcl>
<fcode>ADM1</fcode>
<numberOfChildren>36</numberOfChildren>
</geoname>
<geoname>
<toponymName>Pennsylvania</toponymName>
<name>Pennsylvania</name>
<lat>40.2724534393745</lat>
<lng>-76.9056701660156</lng>
<geonameId>6254927</geonameId>
<countryCode>US</countryCode>
<fcl>A</fcl>
<fcode>ADM1</fcode>
<numberOfChildren>67</numberOfChildren>
</geoname>
<geoname>
<toponymName>Rhode Island</toponymName>
<name>Rhode Island</name>
<lat>41.7503782</lat>
<lng>-71.4997825</lng>
<geonameId>5224323</geonameId>
<countryCode>US</countryCode>
<fcl>A</fcl>
<fcode>ADM1</fcode>
<numberOfChildren>5</numberOfChildren>
</geoname>
<geoname>
<toponymName>South Carolina</toponymName>
<name>South Carolina</name>
<lat>34.0004338</lat>
<lng>-81.000091</lng>
<geonameId>4597040</geonameId>
<countryCode>US</countryCode>
<fcl>A</fcl>
<fcode>ADM1</fcode>
<numberOfChildren>46</numberOfChildren>
</geoname>
<geoname>
<toponymName>South Dakota</toponymName>
<name>South Dakota</name>
<lat>44.5002605</lat>
<lng>-100.2506864</lng>
<geonameId>5769223</geonameId>
<countryCode>US</countryCode>
<fcl>A</fcl>
<fcode>ADM1</fcode>
<numberOfChildren>66</numberOfChildren>
</geoname>
<geoname>
<toponymName>Tennessee</toponymName>
<name>Tennessee</name>
<lat>35.7503468</lat>
<lng>-86.250271</lng>
<geonameId>4662168</geonameId>
<countryCode>US</countryCode>
<fcl>A</fcl>
<fcode>ADM1</fcode>
<numberOfChildren>95</numberOfChildren>
</geoname>
<geoname>
<toponymName>Texas</toponymName>
<name>Texas</name>
<lat>31.2504424</lat>
<lng>-99.2506061</lng>
<geonameId>4736286</geonameId>
<countryCode>US</countryCode>
<fcl>A</fcl>
<fcode>ADM1</fcode>
<numberOfChildren>254</numberOfChildren>
</geoname>
<geoname>
<toponymName>Utah</toponymName>
<name>Utah</name>
<lat>39.2502391</lat>
<lng>-111.7510337</lng>
<geonameId>5549030</geonameId>
<countryCode>US</countryCode>
<fcl>A</fcl>
<fcode>ADM1</fcode>
<numberOfChildren>29</numberOfChildren>
</geoname>
<geoname>
<toponymName>Vermont</toponymName>
<name>Vermont</name>
<lat>44.0003417</lat>
<lng>-72.7498308</lng>
<geonameId>5242283</geonameId>
<countryCode>US</countryCode>
<fcl>A</fcl>
<fcode>ADM1</fcode>
<numberOfChildren>14</numberOfChildren>
</geoname>
<geoname>
<toponymName>Virginia</toponymName>
<name>Virginia</name>
<lat>37.5481160131894</lat>
<lng>-77.4467468261719</lng>
<geonameId>6254928</geonameId>
<countryCode>US</countryCode>
<fcl>A</fcl>
<fcode>ADM1</fcode>
<numberOfChildren>134</numberOfChildren>
</geoname>
<geoname>
<toponymName>Washington</toponymName>
<name>Washington</name>
<lat>47.5001238</lat>
<lng>-120.5014693</lng>
<geonameId>5815135</geonameId>
<countryCode>US</countryCode>
<fcl>A</fcl>
<fcode>ADM1</fcode>
<numberOfChildren>39</numberOfChildren>
</geoname>
<geoname>
<toponymName>District of Columbia</toponymName>
<name>Washington, D.C.</name>
<lat>38.9170559</lat>
<lng>-77.0002539</lng>
<geonameId>4138106</geonameId>
<countryCode>US</countryCode>
<fcl>A</fcl>
<fcode>ADM1</fcode>
</geoname>
<geoname>
<toponymName>West Virginia</toponymName>
<name>West Virginia</name>
<lat>38.5003838</lat>
<lng>-80.5000866</lng>
<geonameId>4826850</geonameId>
<countryCode>US</countryCode>
<fcl>A</fcl>
<fcode>ADM1</fcode>
<numberOfChildren>55</numberOfChildren>
</geoname>
<geoname>
<toponymName>Wisconsin</toponymName>
<name>Wisconsin</name>
<lat>44.5002368</lat>
<lng>-90.0004077</lng>
<geonameId>5279468</geonameId>
<countryCode>US</countryCode>
<fcl>A</fcl>
<fcode>ADM1</fcode>
<numberOfChildren>72</numberOfChildren>
</geoname>
<geoname>
<toponymName>Wyoming</toponymName>
<name>Wyoming</name>
<lat>43.0002381</lat>
<lng>-107.5009043</lng>
<geonameId>5843591</geonameId>
<countryCode>US</countryCode>
<fcl>A</fcl>
<fcode>ADM1</fcode>
<numberOfChildren>23</numberOfChildren>
</geoname>
</geonames>
